{
"type": "FeatureCollection",
"name": "places",
"crs": { "type": "name", "properties": { "name": "urn:ogc:def:crs:EPSG::4326" } },
"features": [
{ "type": "Feature", "properties": { "latitude": -3.251233, "longitude": -52.251747, "category": "airport", "Title": "Altamira airport (ATM)" }, "geometry": { "type": "Point", "coordinates": [ -52.251747, -3.251233 ] } },
{ "type": "Feature", "properties": { "latitude": -10.987023, "longitude": -37.072501, "category": "airport", "Title": "Aracaju airport (AJU)" }, "geometry": { "type": "Point", "coordinates": [ -37.072501, -10.987023 ] } },
{ "type": "Feature", "properties": { "latitude": -1.3849, "longitude": -48.478672, "category": "airport", "Title": "Bel&eacute;m airport (BEL)" }, "geometry": { "type": "Point", "coordinates": [ -48.478672, -1.3849 ] } },
{ "type": "Feature", "properties": { "latitude": -15.870133, "longitude": -47.920953, "category": "airport", "Title": "Bras&iacute;lia airport (BSB)" }, "geometry": { "type": "Point", "coordinates": [ -47.920953, -15.870133 ] } },
{ "type": "Feature", "properties": { "latitude": -23.009889, "longitude": -47.13977, "category": "airport", "Title": "Campinas airport (VCP)" }, "geometry": { "type": "Point", "coordinates": [ -47.13977, -23.009889 ] } },
{ "type": "Feature", "properties": { "latitude": -20.475086, "longitude": -54.680811, "category": "airport", "Title": "Campo Grande airport (CGR)" }, "geometry": { "type": "Point", "coordinates": [ -54.680811, -20.475086 ] } },
{ "type": "Feature", "properties": { "latitude": -19.632401, "longitude": -43.963926, "category": "airport", "Title": "Confins airport (CNF)" }, "geometry": { "type": "Point", "coordinates": [ -43.963926, -19.632401 ] } },
{ "type": "Feature", "properties": { "latitude": -15.651543, "longitude": -56.119924, "category": "airport", "Title": "Cuiab&aacute; airport (CGB)" }, "geometry": { "type": "Point", "coordinates": [ -56.119924, -15.651543 ] } },
{ "type": "Feature", "properties": { "latitude": -27.664997, "longitude": -48.544946, "category": "airport", "Title": "Florian&oacute;polis airport (FLN)" }, "geometry": { "type": "Point", "coordinates": [ -48.544946, -27.664997 ] } },
{ "type": "Feature", "properties": { "latitude": -25.597798, "longitude": -54.488563, "category": "airport", "Title": "Foz do Igua&ccedil;u airport (IGU)" }, "geometry": { "type": "Point", "coordinates": [ -54.488563, -25.597798 ] } },
{ "type": "Feature", "properties": { "latitude": -7.146335, "longitude": -34.949059, "category": "airport", "Title": "Jo&atilde;o Pessoa airport (JPA)" }, "geometry": { "type": "Point", "coordinates": [ -34.949059, -7.146335 ] } },
{ "type": "Feature", "properties": { "latitude": -9.510947, "longitude": -35.792083, "category": "airport", "Title": "Macei&oacute; airport (MCZ)" }, "geometry": { "type": "Point", "coordinates": [ -35.792083, -9.510947 ] } },
{ "type": "Feature", "properties": { "latitude": -3.032652, "longitude": -60.046238, "category": "airport", "Title": "Manaus airport (MAO)" }, "geometry": { "type": "Point", "coordinates": [ -60.046238, -3.032652 ] } },
{ "type": "Feature", "properties": { "latitude": -29.990585, "longitude": -51.18191, "category": "airport", "Title": "Porto Alegre airport (POA)" }, "geometry": { "type": "Point", "coordinates": [ -51.18191, -29.990585 ] } },
{ "type": "Feature", "properties": { "latitude": -16.440989, "longitude": -39.080653, "category": "airport", "Title": "Porto Seguro airport (BPS)" }, "geometry": { "type": "Point", "coordinates": [ -39.080653, -16.440989 ] } },
{ "type": "Feature", "properties": { "latitude": -22.91197, "longitude": -43.166717, "category": "airport", "Title": "Rio de Janeiro - Santos Dumont airport (SDU)" }, "geometry": { "type": "Point", "coordinates": [ -43.166717, -22.91197 ] } },
{ "type": "Feature", "properties": { "latitude": -2.589648, "longitude": -44.237489, "category": "airport", "Title": "S&atilde;o Luiz airport (SLZ)" }, "geometry": { "type": "Point", "coordinates": [ -44.237489, -2.589648 ] } },
{ "type": "Feature", "properties": { "latitude": -5.06049, "longitude": -42.823711, "category": "airport", "Title": "Teresina airport (THE)" }, "geometry": { "type": "Point", "coordinates": [ -42.823711, -5.06049 ] } },
{ "type": "Feature", "properties": { "latitude": -4.245776, "longitude": -56.006862, "category": "airport", "Title": "Itaituba airport (ITB)" }, "geometry": { "type": "Point", "coordinates": [ -56.006862, -4.245776 ] } },
{ "type": "Feature", "properties": { "latitude": -14.814534, "longitude": -39.032217, "category": "airport", "Title": "Ilh&eacute;us Airport - Jorge Amado (IOS)" }, "geometry": { "type": "Point", "coordinates": [ -39.032217, -14.814534 ] } },
{ "type": "Feature", "properties": { "latitude": 40.075389, "longitude": 116.592065, "category": "airport", "Title": "Beijing Capital International Airport (PEK)" }, "geometry": { "type": "Point", "coordinates": [ 116.592065, 40.075389 ] } },
{ "type": "Feature", "properties": { "latitude": 4.696396, "longitude": -74.139686, "category": "airport", "Title": "Bogot&aacute; - El Dorado International Airport (BOG)" }, "geometry": { "type": "Point", "coordinates": [ -74.139686, 4.696396 ] } },
{ "type": "Feature", "properties": { "latitude": -34.559309, "longitude": -58.414732, "category": "airport", "Title": "Buenos Aires - Argentina - Aeroparque (AEP)" }, "geometry": { "type": "Point", "coordinates": [ -58.414732, -34.559309 ] } },
{ "type": "Feature", "properties": { "latitude": 10.445884, "longitude": -75.51384, "category": "airport", "Title": "Cartagena de Indias - Rafael N&uacute;&ntilde;ez International Airport (CTG)" }, "geometry": { "type": "Point", "coordinates": [ -75.51384, 10.445884 ] } },
{ "type": "Feature", "properties": { "latitude": 35.219312, "longitude": -80.944134, "category": "airport", "Title": "Charlotte Douglas Airport (CLT)" }, "geometry": { "type": "Point", "coordinates": [ -80.944134, 35.219312 ] } },
{ "type": "Feature", "properties": { "latitude": 41.901255, "longitude": -87.675018, "category": "airport", "Title": "Chicago O'Hare Intl Airport (ORD)" }, "geometry": { "type": "Point", "coordinates": [ -87.675018, 41.901255 ] } },
{ "type": "Feature", "properties": { "latitude": 39.849312, "longitude": -104.673829, "category": "airport", "Title": "Denver International Airport (DEN)" }, "geometry": { "type": "Point", "coordinates": [ -104.673829, 39.849312 ] } },
{ "type": "Feature", "properties": { "latitude": 42.207597, "longitude": -83.357717, "category": "airport", "Title": "Detroit Metropolitan Wayne County Airport (DTW)" }, "geometry": { "type": "Point", "coordinates": [ -83.357717, 42.207597 ] } },
{ "type": "Feature", "properties": { "latitude": 55.947505, "longitude": -3.363358, "category": "airport", "Title": "Edinburgh Airport (EDI)" }, "geometry": { "type": "Point", "coordinates": [ -3.363358, 55.947505 ] } },
{ "type": "Feature", "properties": { "latitude": -51.821189, "longitude": -58.468703, "category": "airport", "Title": "Falkland Islands - Mount Pleasant Airport (MPA)" }, "geometry": { "type": "Point", "coordinates": [ -58.468703, -51.821189 ] } },
{ "type": "Feature", "properties": { "latitude": 50.036745, "longitude": 8.562384, "category": "airport", "Title": "Frankfurt Airport (FRA)" }, "geometry": { "type": "Point", "coordinates": [ 8.562384, 50.036745 ] } },
{ "type": "Feature", "properties": { "latitude": 33.640645, "longitude": -84.424784, "category": "airport", "Title": "Hartsfield Jackson Atlanta International Airport (ATL)" }, "geometry": { "type": "Point", "coordinates": [ -84.424784, 33.640645 ] } },
{ "type": "Feature", "properties": { "latitude": 29.986014, "longitude": -95.345321, "category": "airport", "Title": "Huston - George Bush Intercontinental Airport (IAH)" }, "geometry": { "type": "Point", "coordinates": [ -95.345321, 29.986014 ] } },
{ "type": "Feature", "properties": { "latitude": 46.647956, "longitude": 14.325565, "category": "airport", "Title": "Klagenfurt Airport (KLU)" }, "geometry": { "type": "Point", "coordinates": [ 14.325565, 46.647956 ] } },
{ "type": "Feature", "properties": { "latitude": 38.77043, "longitude": -9.12952, "category": "airport", "Title": "Lisbon - Portela Airport (LIS)" }, "geometry": { "type": "Point", "coordinates": [ -9.12952, 38.77043 ] } },
{ "type": "Feature", "properties": { "latitude": 51.467162, "longitude": -0.465889, "category": "airport", "Title": "London Heathrow Airport (LHR)" }, "geometry": { "type": "Point", "coordinates": [ -0.465889, 51.467162 ] } },
{ "type": "Feature", "properties": { "latitude": 33.942822, "longitude": -118.410534, "category": "airport", "Title": "Los Angeles International Airport (LAX)" }, "geometry": { "type": "Point", "coordinates": [ -118.410534, 33.942822 ] } },
{ "type": "Feature", "properties": { "latitude": 6.171443, "longitude": -75.428551, "category": "airport", "Title": "Medellin - Jos&eacute; Mar&iacute;a C&oacute;rdova International Airport (MDE)" }, "geometry": { "type": "Point", "coordinates": [ -75.428551, 6.171443 ] } },
{ "type": "Feature", "properties": { "latitude": 31.737338, "longitude": 118.871028, "category": "airport", "Title": "Nanjing Lukou International Airport (NKG)" }, "geometry": { "type": "Point", "coordinates": [ 118.871028, 31.737338 ] } },
{ "type": "Feature", "properties": { "latitude": 60.193939, "longitude": 11.098964, "category": "airport", "Title": "Oslo Gardermoen airport (OSL)" }, "geometry": { "type": "Point", "coordinates": [ 11.098964, 60.193939 ] } },
{ "type": "Feature", "properties": { "latitude": 41.236802, "longitude": -8.671153, "category": "airport", "Title": "Porto - Francisco S&aacute; Carneiro Airport (OPO)" }, "geometry": { "type": "Point", "coordinates": [ -8.671153, 41.236802 ] } },
{ "type": "Feature", "properties": { "latitude": -53.004771, "longitude": -70.846806, "category": "airport", "Title": "Presidente Carlos Ib&aacute;&ntilde;ez International Airport (PUQ)" }, "geometry": { "type": "Point", "coordinates": [ -70.846806, -53.004771 ] } },
{ "type": "Feature", "properties": { "latitude": -51.609927, "longitude": -69.310815, "category": "airport", "Title": "Rio Gallegos Airport - Argentina (RGL)" }, "geometry": { "type": "Point", "coordinates": [ -69.310815, -51.609927 ] } },
{ "type": "Feature", "properties": { "latitude": -33.390472, "longitude": -70.794728, "category": "airport", "Title": "Santiago de Chile - Arturo Merino Airport (SCL)" }, "geometry": { "type": "Point", "coordinates": [ -70.794728, -33.390472 ] } },
{ "type": "Feature", "properties": { "latitude": 31.151302, "longitude": 121.79943, "category": "airport", "Title": "Shanghai Pudong International Airport (PVG)" }, "geometry": { "type": "Point", "coordinates": [ 121.79943, 31.151302 ] } },
{ "type": "Feature", "properties": { "latitude": 38.953378, "longitude": -77.447832, "category": "airport", "Title": "Washington Dulles International Airport (IAD)" }, "geometry": { "type": "Point", "coordinates": [ -77.447832, 38.953378 ] } },
{ "type": "Feature", "properties": { "latitude": 49.196407, "longitude": -123.180964, "category": "airport", "Title": "Vancouver International Airport (YVR)" }, "geometry": { "type": "Point", "coordinates": [ -123.180964, 49.196407 ] } },
{ "type": "Feature", "properties": { "latitude": 32.899809, "longitude": -97.040335, "category": "airport", "Title": "Dallas Fort Worth International Airport (DFW)" }, "geometry": { "type": "Point", "coordinates": [ -97.040335, 32.899809 ] } },
{ "type": "Feature", "properties": { "latitude": 49.009691, "longitude": 2.547924, "category": "airport", "Title": "Paris Charles de Gaulle Airport (CDG)" }, "geometry": { "type": "Point", "coordinates": [ 2.547924, 49.009691 ] } },
{ "type": "Feature", "properties": { "latitude": 52.558833, "longitude": 13.288437, "category": "airport", "Title": "Berlin Tegel Airport (TXL)" }, "geometry": { "type": "Point", "coordinates": [ 13.288437, 52.558833 ] } },
{ "type": "Feature", "properties": { "latitude": 39.177404, "longitude": -76.668391, "category": "airport", "Title": "Baltimore\/Washington International Thurgood Marshall Airport (BWI)" }, "geometry": { "type": "Point", "coordinates": [ -76.668391, 39.177404 ] } },
{ "type": "Feature", "properties": { "latitude": 50.108721, "longitude": 14.269412, "category": "airport", "Title": "Václav Havel Airport Prague (PRG)" }, "geometry": { "type": "Point", "coordinates": [ 14.269412, 50.108721 ] } },
{ "type": "Feature", "properties": { "latitude": 40.494445, "longitude": -3.567428, "category": "airport", "Title": "Madrid-Barajas Airport (MAD)" }, "geometry": { "type": "Point", "coordinates": [ -3.567428, 40.494445 ] } },
{ "type": "Feature", "properties": { "latitude": 45.627068, "longitude": 8.711169, "category": "airport", "Title": "Milan-Malpensa Airport (MXP)" }, "geometry": { "type": "Point", "coordinates": [ 8.711169, 45.627068 ] } },
{ "type": "Feature", "properties": { "latitude": 40.64349, "longitude": -73.782151, "category": "airport", "Title": "JFK International Airport (JFK)" }, "geometry": { "type": "Point", "coordinates": [ -73.782151, 40.64349 ] } },
{ "type": "Feature", "properties": { "latitude": 39.84982, "longitude": -104.673866, "category": "airport", "Title": "Denver International Airport (DEN)" }, "geometry": { "type": "Point", "coordinates": [ -104.673866, 39.84982 ] } },
{ "type": "Feature", "properties": { "latitude": 9.066857, "longitude": -79.387171, "category": "airport", "Title": "Tocumen International Airport (PTY)" }, "geometry": { "type": "Point", "coordinates": [ -79.387171, 9.066857 ] } },
{ "type": "Feature", "properties": { "latitude": 49.290498, "longitude": -123.11867, "category": "port", "Title": "Vancouver SeaAir terminal" }, "geometry": { "type": "Point", "coordinates": [ -123.11867, 49.290498 ] } },
{ "type": "Feature", "properties": { "latitude": 49.191011, "longitude": -123.948136, "category": "port", "Title": "Nanaimo SeaAir terminal" }, "geometry": { "type": "Point", "coordinates": [ -123.948136, 49.191011 ] } },
{ "type": "Feature", "properties": { "latitude": 49.191983, "longitude": -123.953661, "category": "port", "Title": "Nanaimo Ferry Terminal" }, "geometry": { "type": "Point", "coordinates": [ -123.953661, 49.191983 ] } },
{ "type": "Feature", "properties": { "latitude": 51.126556, "longitude": 1.335354, "category": "port", "Title": "Port of Dover - Waiting for the ferry to France" }, "geometry": { "type": "Point", "coordinates": [ 1.335354, 51.126556 ] } },
{ "type": "Feature", "properties": { "latitude": 51.019586, "longitude": 2.17392, "category": "port", "Title": "Port of Calais - Waiting for the ferry back to England" }, "geometry": { "type": "Point", "coordinates": [ 2.17392, 51.019586 ] } },
{ "type": "Feature", "properties": { "latitude": -23.499046, "longitude": -47.462837, "category": "place", "Title": "Sorocaba SP - Brazil - Home sweet home" }, "geometry": { "type": "Point", "coordinates": [ -47.462837, -23.499046 ] } },
{ "type": "Feature", "properties": { "latitude": -15.794896, "longitude": -47.882538, "category": "place", "Title": "Bras&iacute;lia - THIS is the Capital of Brazil!! (not Rio)" }, "geometry": { "type": "Point", "coordinates": [ -47.882538, -15.794896 ] } },
{ "type": "Feature", "properties": { "latitude": -32.822047, "longitude": -69.923, "category": "place", "Title": "Puente del Inca - Argentina  Looking at Mt. Aconcagua (6962m)" }, "geometry": { "type": "Point", "coordinates": [ -69.923, -32.822047 ] } },
{ "type": "Feature", "properties": { "latitude": -22.376349, "longitude": -44.66363, "category": "place", "Title": "Pico das Agulhas Negras - Itatiaia National Park" }, "geometry": { "type": "Point", "coordinates": [ -44.66363, -22.376349 ] } },
{ "type": "Feature", "properties": { "latitude": -20.434413, "longitude": -41.798515, "category": "place", "Title": "Pico da Bandeira - MG + ES - 3rd highest peak of Brazil" }, "geometry": { "type": "Point", "coordinates": [ -41.798515, -20.434413 ] } },
{ "type": "Feature", "properties": { "latitude": -20.078505, "longitude": -43.414364, "category": "place", "Title": "Catas Altas - MG - Serra do Cara&ccedil;a" }, "geometry": { "type": "Point", "coordinates": [ -43.414364, -20.078505 ] } },
{ "type": "Feature", "properties": { "latitude": -25.16797, "longitude": -47.936096, "category": "place", "Title": "Ilha do Cardoso - SP" }, "geometry": { "type": "Point", "coordinates": [ -47.936096, -25.16797 ] } },
{ "type": "Feature", "properties": { "latitude": -30.514949, "longitude": -53.488312, "category": "place", "Title": "Ca&ccedil;apava do Sul - RS - Geological Mapping" }, "geometry": { "type": "Point", "coordinates": [ -53.488312, -30.514949 ] } },
{ "type": "Feature", "properties": { "latitude": -26.929416, "longitude": -48.947182, "category": "place", "Title": "Gaspar - SC - Geological Mapping" }, "geometry": { "type": "Point", "coordinates": [ -48.947182, -26.929416 ] } },
{ "type": "Feature", "properties": { "latitude": -22.43682, "longitude": -47.71897, "category": "place", "Title": "Ipe&uacute;na - SP - Geological Mapping" }, "geometry": { "type": "Point", "coordinates": [ -47.71897, -22.43682 ] } },
{ "type": "Feature", "properties": { "latitude": -27.809016, "longitude": -50.3283, "category": "place", "Title": "Lages - SC - Geological Mapping" }, "geometry": { "type": "Point", "coordinates": [ -50.3283, -27.809016 ] } },
{ "type": "Feature", "properties": { "latitude": -22.533567, "longitude": -47.712593, "category": "place", "Title": "Paraisol&acirc;ndia - SP - Geological Mapping" }, "geometry": { "type": "Point", "coordinates": [ -47.712593, -22.533567 ] } },
{ "type": "Feature", "properties": { "latitude": -30.233561, "longitude": -68.735275, "category": "place", "Title": "San Jos&eacute; de Jachal - Argentina - Geological Mapping" }, "geometry": { "type": "Point", "coordinates": [ -68.735275, -30.233561 ] } },
{ "type": "Feature", "properties": { "latitude": -21.683591, "longitude": -43.887463, "category": "place", "Title": "Serra do Ibitipoca - MG - Geological Mapping" }, "geometry": { "type": "Point", "coordinates": [ -43.887463, -21.683591 ] } },
{ "type": "Feature", "properties": { "latitude": -3.843782, "longitude": -52.736668, "category": "place", "Title": "Iriri River - Sediment sampling" }, "geometry": { "type": "Point", "coordinates": [ -52.736668, -3.843782 ] } },
{ "type": "Feature", "properties": { "latitude": -3.640539, "longitude": -59.035296, "category": "place", "Title": "Madeira River - Sediment sampling" }, "geometry": { "type": "Point", "coordinates": [ -59.035296, -3.640539 ] } },
{ "type": "Feature", "properties": { "latitude": -3.432725, "longitude": -55.300433, "category": "place", "Title": "Tapaj&oacute;s River - Sediment sampling" }, "geometry": { "type": "Point", "coordinates": [ -55.300433, -3.432725 ] } },
{ "type": "Feature", "properties": { "latitude": -3.888317, "longitude": -52.594315, "category": "place", "Title": "Xingu River - Sediment sampling" }, "geometry": { "type": "Point", "coordinates": [ -52.594315, -3.888317 ] } },
{ "type": "Feature", "properties": { "latitude": -2.08528, "longitude": -65.181702, "category": "place", "Title": "Japur&aacute; River - Sediment sampling" }, "geometry": { "type": "Point", "coordinates": [ -65.181702, -2.08528 ] } },
{ "type": "Feature", "properties": { "latitude": -3.094542, "longitude": -59.987175, "category": "place", "Title": "INPA - National Institute of Amazon Research" }, "geometry": { "type": "Point", "coordinates": [ -59.987175, -3.094542 ] } },
{ "type": "Feature", "properties": { "latitude": -23.207098, "longitude": -45.860191, "category": "place", "Title": "INPE - National Institute of Space Research" }, "geometry": { "type": "Point", "coordinates": [ -45.860191, -23.207098 ] } },
{ "type": "Feature", "properties": { "latitude": -23.561391, "longitude": -46.72731, "category": "place", "Title": "S&atilde;o Paulo SP - Brazil - University of S&atilde;o Paulo (USP)" }, "geometry": { "type": "Point", "coordinates": [ -46.72731, -23.561391 ] } },
{ "type": "Feature", "properties": { "latitude": -20.5015, "longitude": -54.612041, "category": "place", "Title": "UFMS - Campo Grande" }, "geometry": { "type": "Point", "coordinates": [ -54.612041, -20.5015 ] } },
{ "type": "Feature", "properties": { "latitude": -22.396606, "longitude": -47.547122, "category": "place", "Title": "UNESP - Rio Claro" }, "geometry": { "type": "Point", "coordinates": [ -47.547122, -22.396606 ] } },
{ "type": "Feature", "properties": { "latitude": -22.764292, "longitude": -43.689284, "category": "place", "Title": "UFRRJ - Seropédica, RJ" }, "geometry": { "type": "Point", "coordinates": [ -43.689284, -22.764292 ] } },
{ "type": "Feature", "properties": { "latitude": -22.911191, "longitude": -43.236188, "category": "place", "Title": "UERJ - Rio de Janeiro" }, "geometry": { "type": "Point", "coordinates": [ -43.236188, -22.911191 ] } },
{ "type": "Feature", "properties": { "latitude": -22.854162, "longitude": -43.233657, "category": "place", "Title": "UFRJ - Rio de Janeiro" }, "geometry": { "type": "Point", "coordinates": [ -43.233657, -22.854162 ] } },
{ "type": "Feature", "properties": { "latitude": -20.394603, "longitude": -43.511192, "category": "place", "Title": "UFOP - Ouro Preto, MG" }, "geometry": { "type": "Point", "coordinates": [ -43.511192, -20.394603 ] } },
{ "type": "Feature", "properties": { "latitude": -22.817122, "longitude": -47.069816, "category": "place", "Title": "Unicamp - Campinas, SP" }, "geometry": { "type": "Point", "coordinates": [ -47.069816, -22.817122 ] } },
{ "type": "Feature", "properties": { "latitude": -3.208881, "longitude": -52.20846, "category": "place", "Title": "Altamira - PA" }, "geometry": { "type": "Point", "coordinates": [ -52.20846, -3.208881 ] } },
{ "type": "Feature", "properties": { "latitude": -2.51043, "longitude": -54.95464, "category": "place", "Title": "Alter do Ch&atilde;o - PA" }, "geometry": { "type": "Point", "coordinates": [ -54.95464, -2.51043 ] } },
{ "type": "Feature", "properties": { "latitude": -14.152384, "longitude": -47.519394, "category": "place", "Title": "Alto Para&iacute;so de Goi&aacute;s - GO" }, "geometry": { "type": "Point", "coordinates": [ -47.519394, -14.152384 ] } },
{ "type": "Feature", "properties": { "latitude": -13.216769, "longitude": -50.578875, "category": "place", "Title": "Araguaia River" }, "geometry": { "type": "Point", "coordinates": [ -50.578875, -13.216769 ] } },
{ "type": "Feature", "properties": { "latitude": -21.130658, "longitude": -56.480928, "category": "place", "Title": "Bonito - MS" }, "geometry": { "type": "Point", "coordinates": [ -56.480928, -21.130658 ] } },
{ "type": "Feature", "properties": { "latitude": -16.064433, "longitude": -57.688093, "category": "place", "Title": "C&aacute;ceres - MT" }, "geometry": { "type": "Point", "coordinates": [ -57.688093, -16.064433 ] } },
{ "type": "Feature", "properties": { "latitude": -7.222503, "longitude": -35.889931, "category": "place", "Title": "Campina Grande - PB - Good place for Geology" }, "geometry": { "type": "Point", "coordinates": [ -35.889931, -7.222503 ] } },
{ "type": "Feature", "properties": { "latitude": -13.791013, "longitude": -48.564234, "category": "place", "Title": "Campina&ccedil;u - GO" }, "geometry": { "type": "Point", "coordinates": [ -48.564234, -13.791013 ] } },
{ "type": "Feature", "properties": { "latitude": -10.504868, "longitude": -40.319208, "category": "place", "Title": "Campo Formoso - BA" }, "geometry": { "type": "Point", "coordinates": [ -40.319208, -10.504868 ] } },
{ "type": "Feature", "properties": { "latitude": -20.463204, "longitude": -54.612092, "category": "place", "Title": "Campo Grande - MS" }, "geometry": { "type": "Point", "coordinates": [ -54.612092, -20.463204 ] } },
{ "type": "Feature", "properties": { "latitude": -4.829917, "longitude": -42.167215, "category": "place", "Title": "Campo Maior - PI" }, "geometry": { "type": "Point", "coordinates": [ -42.167215, -4.829917 ] } },
{ "type": "Feature", "properties": { "latitude": -15.674844, "longitude": -38.93285, "category": "place", "Title": "Canavieiras - BA" }, "geometry": { "type": "Point", "coordinates": [ -38.93285, -15.674844 ] } },
{ "type": "Feature", "properties": { "latitude": -9.966145, "longitude": -39.164543, "category": "place", "Title": "Canudos - BA - The War of the End of the World" }, "geometry": { "type": "Point", "coordinates": [ -39.164543, -9.966145 ] } },
{ "type": "Feature", "properties": { "latitude": -18.160567, "longitude": -47.939729, "category": "place", "Title": "Catal&atilde;o - GO" }, "geometry": { "type": "Point", "coordinates": [ -47.939729, -18.160567 ] } },
{ "type": "Feature", "properties": { "latitude": -18.793492, "longitude": -52.621039, "category": "place", "Title": "Chapad&atilde;o do Sul - MS" }, "geometry": { "type": "Point", "coordinates": [ -52.621039, -18.793492 ] } },
{ "type": "Feature", "properties": { "latitude": -16.766036, "longitude": -47.615888, "category": "place", "Title": "Cristalina - GO" }, "geometry": { "type": "Point", "coordinates": [ -47.615888, -16.766036 ] } },
{ "type": "Feature", "properties": { "latitude": -15.62543, "longitude": -56.060071, "category": "place", "Title": "Cuiab&aacute; - MT" }, "geometry": { "type": "Point", "coordinates": [ -56.060071, -15.62543 ] } },
{ "type": "Feature", "properties": { "latitude": -15.608446, "longitude": -57.920809, "category": "place", "Title": "Curvel&acirc;ndia -  MT" }, "geometry": { "type": "Point", "coordinates": [ -57.920809, -15.608446 ] } },
{ "type": "Feature", "properties": { "latitude": -18.241534, "longitude": -43.601743, "category": "place", "Title": "Diamantina - MG - Centro de Geologia Eschwege" }, "geometry": { "type": "Point", "coordinates": [ -43.601743, -18.241534 ] } },
{ "type": "Feature", "properties": { "latitude": -6.774345, "longitude": -43.009533, "category": "place", "Title": "Floriano - PI" }, "geometry": { "type": "Point", "coordinates": [ -43.009533, -6.774345 ] } },
{ "type": "Feature", "properties": { "latitude": -25.509415, "longitude": -54.549002, "category": "place", "Title": "Foz do Igua&ccedil;u - PR" }, "geometry": { "type": "Point", "coordinates": [ -54.549002, -25.509415 ] } },
{ "type": "Feature", "properties": { "latitude": -28.00427, "longitude": -48.636, "category": "place", "Title": "Garopaba dune field - SC - Research" }, "geometry": { "type": "Point", "coordinates": [ -48.636, -28.00427 ] } },
{ "type": "Feature", "properties": { "latitude": -28.132617, "longitude": -48.642887, "category": "place", "Title": "Praia do Rosa - Imbituba - SC" }, "geometry": { "type": "Point", "coordinates": [ -48.642887, -28.132617 ] } },
{ "type": "Feature", "properties": { "latitude": -12.243034, "longitude": -41.616069, "category": "place", "Title": "Iraquara - BA" }, "geometry": { "type": "Point", "coordinates": [ -41.616069, -12.243034 ] } },
{ "type": "Feature", "properties": { "latitude": -3.78112, "longitude": -40.496839, "category": "place", "Title": "Jaibaras - CE" }, "geometry": { "type": "Point", "coordinates": [ -40.496839, -3.78112 ] } },
{ "type": "Feature", "properties": { "latitude": -15.225694, "longitude": -56.498884, "category": "place", "Title": "Jangada - MT" }, "geometry": { "type": "Point", "coordinates": [ -56.498884, -15.225694 ] } },
{ "type": "Feature", "properties": { "latitude": -12.562941, "longitude": -41.389189, "category": "place", "Title": "Len&ccedil;&oacute;is, BA - Chapada Diamantina" }, "geometry": { "type": "Point", "coordinates": [ -41.389189, -12.562941 ] } },
{ "type": "Feature", "properties": { "latitude": -14.491585, "longitude": -46.111437, "category": "place", "Title": "Mamba&iacute; - GO" }, "geometry": { "type": "Point", "coordinates": [ -46.111437, -14.491585 ] } },
{ "type": "Feature", "properties": { "latitude": -3.13013, "longitude": -60.02357, "category": "place", "Title": "Manaus - AM - Teatro Amazonas" }, "geometry": { "type": "Point", "coordinates": [ -60.02357, -3.13013 ] } },
{ "type": "Feature", "properties": { "latitude": -10.546718, "longitude": -46.422921, "category": "place", "Title": "Mateiros - TO" }, "geometry": { "type": "Point", "coordinates": [ -46.422921, -10.546718 ] } },
{ "type": "Feature", "properties": { "latitude": -30.9027, "longitude": -53.429867, "category": "place", "Title": "Minas do Camacu&atilde; - RS" }, "geometry": { "type": "Point", "coordinates": [ -53.429867, -30.9027 ] } },
{ "type": "Feature", "properties": { "latitude": -7.891991, "longitude": -37.117224, "category": "place", "Title": "Monteiro - PB" }, "geometry": { "type": "Point", "coordinates": [ -37.117224, -7.891991 ] } },
{ "type": "Feature", "properties": { "latitude": -16.74455, "longitude": -43.871811, "category": "place", "Title": "Montes Claros - MG" }, "geometry": { "type": "Point", "coordinates": [ -43.871811, -16.74455 ] } },
{ "type": "Feature", "properties": { "latitude": -13.009101, "longitude": -41.373367, "category": "place", "Title": "Mucug&ecirc; - BA" }, "geometry": { "type": "Point", "coordinates": [ -41.373367, -13.009101 ] } },
{ "type": "Feature", "properties": { "latitude": -9.962988, "longitude": -47.672818, "category": "place", "Title": "Novo Acordo - TO" }, "geometry": { "type": "Point", "coordinates": [ -47.672818, -9.962988 ] } },
{ "type": "Feature", "properties": { "latitude": -7.017579, "longitude": -42.131509, "category": "place", "Title": "Oeiras - PI" }, "geometry": { "type": "Point", "coordinates": [ -42.131509, -7.017579 ] } },
{ "type": "Feature", "properties": { "latitude": -10.294906, "longitude": -48.357567, "category": "place", "Title": "Palmas - TO" }, "geometry": { "type": "Point", "coordinates": [ -48.357567, -10.294906 ] } },
{ "type": "Feature", "properties": { "latitude": -10.741065, "longitude": -47.53622, "category": "place", "Title": "Ponta Alta do Tocantins - TO" }, "geometry": { "type": "Point", "coordinates": [ -47.53622, -10.741065 ] } },
{ "type": "Feature", "properties": { "latitude": -1.745496, "longitude": -52.245399, "category": "place", "Title": "Porto de Moz - PA" }, "geometry": { "type": "Point", "coordinates": [ -52.245399, -1.745496 ] } },
{ "type": "Feature", "properties": { "latitude": -21.695115, "longitude": -57.886062, "category": "place", "Title": "Porto Murtinho - MS" }, "geometry": { "type": "Point", "coordinates": [ -57.886062, -21.695115 ] } },
{ "type": "Feature", "properties": { "latitude": -10.733202, "longitude": -48.413309, "category": "place", "Title": "Porto Nacional - TO" }, "geometry": { "type": "Point", "coordinates": [ -48.413309, -10.733202 ] } },
{ "type": "Feature", "properties": { "latitude": -16.444679, "longitude": -39.062011, "category": "place", "Title": "Porto Seguro - BA" }, "geometry": { "type": "Point", "coordinates": [ -39.062011, -16.444679 ] } },
{ "type": "Feature", "properties": { "latitude": -8.052431, "longitude": -34.889832, "category": "place", "Title": "Recife + Olinda - PE - Historical Cities" }, "geometry": { "type": "Point", "coordinates": [ -34.889832, -8.052431 ] } },
{ "type": "Feature", "properties": { "latitude": -13.654243, "longitude": -46.316718, "category": "place", "Title": "S&atilde;o Domingos - GO - Pousada S&atilde;o Mateus" }, "geometry": { "type": "Point", "coordinates": [ -46.316718, -13.654243 ] } },
{ "type": "Feature", "properties": { "latitude": -10.160936, "longitude": -46.667056, "category": "place", "Title": "S&atilde;o F&eacute;lix do Tocantins - TO" }, "geometry": { "type": "Point", "coordinates": [ -46.667056, -10.160936 ] } },
{ "type": "Feature", "properties": { "latitude": -2.482805, "longitude": -44.246652, "category": "place", "Title": "S&atilde;o Luiz - MA - Caolho Beach" }, "geometry": { "type": "Point", "coordinates": [ -44.246652, -2.482805 ] } },
{ "type": "Feature", "properties": { "latitude": -13.269294, "longitude": -50.158337, "category": "place", "Title": "S&atilde;o Miguel do Araguaia - TO" }, "geometry": { "type": "Point", "coordinates": [ -50.158337, -13.269294 ] } },
{ "type": "Feature", "properties": { "latitude": -13.003396, "longitude": -38.533005, "category": "place", "Title": "Salvador - BA" }, "geometry": { "type": "Point", "coordinates": [ -38.533005, -13.003396 ] } },
{ "type": "Feature", "properties": { "latitude": -13.396461, "longitude": -44.197352, "category": "place", "Title": "Santa Maria da Vit&oacute;ria - BA" }, "geometry": { "type": "Point", "coordinates": [ -44.197352, -13.396461 ] } },
{ "type": "Feature", "properties": { "latitude": -2.41628, "longitude": -54.71207, "category": "place", "Title": "Santar&eacute;m - PA (orla)" }, "geometry": { "type": "Point", "coordinates": [ -54.71207, -2.41628 ] } },
{ "type": "Feature", "properties": { "latitude": -10.462247, "longitude": -40.187144, "category": "place", "Title": "Senhor do Bonfim - BA" }, "geometry": { "type": "Point", "coordinates": [ -40.187144, -10.462247 ] } },
{ "type": "Feature", "properties": { "latitude": -5.087204, "longitude": -42.793878, "category": "place", "Title": "Teresina - PI" }, "geometry": { "type": "Point", "coordinates": [ -42.793878, -5.087204 ] } },
{ "type": "Feature", "properties": { "latitude": -3.717845, "longitude": -40.990464, "category": "place", "Title": "Tiangu&aacute; - CE" }, "geometry": { "type": "Point", "coordinates": [ -40.990464, -3.717845 ] } },
{ "type": "Feature", "properties": { "latitude": -2.877075, "longitude": -52.001884, "category": "place", "Title": "Vit&oacute;ria do Xingu - PA" }, "geometry": { "type": "Point", "coordinates": [ -52.001884, -2.877075 ] } },
{ "type": "Feature", "properties": { "latitude": -21.033318, "longitude": -44.757721, "category": "place", "Title": "Bom Sucesso - MG" }, "geometry": { "type": "Point", "coordinates": [ -44.757721, -21.033318 ] } },
{ "type": "Feature", "properties": { "latitude": -24.71285, "longitude": -47.562092, "category": "place", "Title": "Iguape - SP" }, "geometry": { "type": "Point", "coordinates": [ -47.562092, -24.71285 ] } },
{ "type": "Feature", "properties": { "latitude": -24.734936, "longitude": -47.548151, "category": "place", "Title": "Ilha Comprida - SP" }, "geometry": { "type": "Point", "coordinates": [ -47.548151, -24.734936 ] } },
{ "type": "Feature", "properties": { "latitude": -23.997841, "longitude": -46.256429, "category": "place", "Title": "Guaruj&aacute; - SP" }, "geometry": { "type": "Point", "coordinates": [ -46.256429, -23.997841 ] } },
{ "type": "Feature", "properties": { "latitude": -23.155913, "longitude": -47.056563, "category": "place", "Title": "Itupeva - SP" }, "geometry": { "type": "Point", "coordinates": [ -47.056563, -23.155913 ] } },
{ "type": "Feature", "properties": { "latitude": -23.98463, "longitude": -48.347306, "category": "place", "Title": "Cap&atilde;o bonito - SP" }, "geometry": { "type": "Point", "coordinates": [ -48.347306, -23.98463 ] } },
{ "type": "Feature", "properties": { "latitude": -22.566988, "longitude": -47.397733, "category": "place", "Title": "Limeira - SP" }, "geometry": { "type": "Point", "coordinates": [ -47.397733, -22.566988 ] } },
{ "type": "Feature", "properties": { "latitude": -21.977984, "longitude": -44.933222, "category": "place", "Title": "Caxambu - MG" }, "geometry": { "type": "Point", "coordinates": [ -44.933222, -21.977984 ] } },
{ "type": "Feature", "properties": { "latitude": -21.975314, "longitude": -44.603527, "category": "place", "Title": "Aiuruoca - MG" }, "geometry": { "type": "Point", "coordinates": [ -44.603527, -21.975314 ] } },
{ "type": "Feature", "properties": { "latitude": -19.458959, "longitude": -44.241919, "category": "place", "Title": "Sete Lagoas - MG" }, "geometry": { "type": "Point", "coordinates": [ -44.241919, -19.458959 ] } },
{ "type": "Feature", "properties": { "latitude": -21.491479, "longitude": -44.644408, "category": "place", "Title": "Carrancas - MG" }, "geometry": { "type": "Point", "coordinates": [ -44.644408, -21.491479 ] } },
{ "type": "Feature", "properties": { "latitude": -20.410862, "longitude": -42.896785, "category": "place", "Title": "Ponte Nova - MG" }, "geometry": { "type": "Point", "coordinates": [ -42.896785, -20.410862 ] } },
{ "type": "Feature", "properties": { "latitude": -18.916154, "longitude": -48.274358, "category": "place", "Title": "Unberl&acirc;ndia - MG" }, "geometry": { "type": "Point", "coordinates": [ -48.274358, -18.916154 ] } },
{ "type": "Feature", "properties": { "latitude": -14.756348, "longitude": -43.932243, "category": "place", "Title": "Manga - MG" }, "geometry": { "type": "Point", "coordinates": [ -43.932243, -14.756348 ] } },
{ "type": "Feature", "properties": { "latitude": -15.80696, "longitude": -43.3079, "category": "place", "Title": "Jana&uacute;ba - MG" }, "geometry": { "type": "Point", "coordinates": [ -43.3079, -15.80696 ] } },
{ "type": "Feature", "properties": { "latitude": -14.019966, "longitude": -41.246535, "category": "place", "Title": "Tanha&ccedil;u - BA" }, "geometry": { "type": "Point", "coordinates": [ -41.246535, -14.019966 ] } },
{ "type": "Feature", "properties": { "latitude": -20.38579, "longitude": -43.503631, "category": "place", "Title": "Ouro Preto - MG" }, "geometry": { "type": "Point", "coordinates": [ -43.503631, -20.38579 ] } },
{ "type": "Feature", "properties": { "latitude": -13.812307, "longitude": -41.299031, "category": "place", "Title": "Itua&ccedil;u - BA" }, "geometry": { "type": "Point", "coordinates": [ -41.299031, -13.812307 ] } },
{ "type": "Feature", "properties": { "latitude": -19.963525, "longitude": -43.412578, "category": "place", "Title": "Santa B&aacute;rbara - MG " }, "geometry": { "type": "Point", "coordinates": [ -43.412578, -19.963525 ] } },
{ "type": "Feature", "properties": { "latitude": -18.458105, "longitude": -43.739402, "category": "place", "Title": "Gouveia - MG" }, "geometry": { "type": "Point", "coordinates": [ -43.739402, -18.458105 ] } },
{ "type": "Feature", "properties": { "latitude": -24.184652, "longitude": -46.784073, "category": "place", "Title": "Itanha&eacute;m - SP" }, "geometry": { "type": "Point", "coordinates": [ -46.784073, -24.184652 ] } },
{ "type": "Feature", "properties": { "latitude": -24.32348, "longitude": -46.993568, "category": "place", "Title": "Peruibe - SP" }, "geometry": { "type": "Point", "coordinates": [ -46.993568, -24.32348 ] } },
{ "type": "Feature", "properties": { "latitude": -23.445291, "longitude": -45.06783, "category": "place", "Title": "Ubatuba - SP" }, "geometry": { "type": "Point", "coordinates": [ -45.06783, -23.445291 ] } },
{ "type": "Feature", "properties": { "latitude": -23.206323, "longitude": -44.717965, "category": "place", "Title": "Paraty - RJ" }, "geometry": { "type": "Point", "coordinates": [ -44.717965, -23.206323 ] } },
{ "type": "Feature", "properties": { "latitude": -23.006162, "longitude": -44.30926, "category": "place", "Title": "Angra dos Reis - RJ" }, "geometry": { "type": "Point", "coordinates": [ -44.30926, -23.006162 ] } },
{ "type": "Feature", "properties": { "latitude": -23.020427, "longitude": -45.556446, "category": "place", "Title": "Taubat&eacute; - SP" }, "geometry": { "type": "Point", "coordinates": [ -45.556446, -23.020427 ] } },
{ "type": "Feature", "properties": { "latitude": -22.820432, "longitude": -45.18632, "category": "place", "Title": "Guaratinguet&aacute; - O Paturi Hotel" }, "geometry": { "type": "Point", "coordinates": [ -45.18632, -22.820432 ] } },
{ "type": "Feature", "properties": { "latitude": -23.412956, "longitude": -46.030862, "category": "place", "Title": "Guararema - SP" }, "geometry": { "type": "Point", "coordinates": [ -46.030862, -23.412956 ] } },
{ "type": "Feature", "properties": { "latitude": -22.962378, "longitude": -44.041275, "category": "place", "Title": "Mangaratiba - RJ" }, "geometry": { "type": "Point", "coordinates": [ -44.041275, -22.962378 ] } },
{ "type": "Feature", "properties": { "latitude": -24.553369, "longitude": -48.673553, "category": "place", "Title": "Bairro da Serra - SP  - Caves" }, "geometry": { "type": "Point", "coordinates": [ -48.673553, -24.553369 ] } },
{ "type": "Feature", "properties": { "latitude": -20.519001, "longitude": -56.730652, "category": "place", "Title": "Bodoquena - MS - Caves and more caves" }, "geometry": { "type": "Point", "coordinates": [ -56.730652, -20.519001 ] } },
{ "type": "Feature", "properties": { "latitude": -13.024628, "longitude": -46.767426, "category": "place", "Title": "Campos Belos - GO + TO - Good caves" }, "geometry": { "type": "Point", "coordinates": [ -46.767426, -13.024628 ] } },
{ "type": "Feature", "properties": { "latitude": -11.08408, "longitude": -41.454163, "category": "place", "Title": "Central - more caves" }, "geometry": { "type": "Point", "coordinates": [ -41.454163, -11.08408 ] } },
{ "type": "Feature", "properties": { "latitude": -15.486769, "longitude": -44.362793, "category": "place", "Title": "Janu&aacute;ria - MG - Entrance to Perua&ccedil;u Caves National Park" }, "geometry": { "type": "Point", "coordinates": [ -44.362793, -15.486769 ] } },
{ "type": "Feature", "properties": { "latitude": -10.186539, "longitude": -40.975571, "category": "place", "Title": "Laje dos Negros - BA - Toca da Boa Vista. The longest cave in Brazil" }, "geometry": { "type": "Point", "coordinates": [ -40.975571, -10.186539 ] } },
{ "type": "Feature", "properties": { "latitude": -10.971247, "longitude": -41.083039, "category": "place", "Title": "Ourol&acirc;ndia - Lapa dos Brej&otilde + Lapa dos Ossos" }, "geometry": { "type": "Point", "coordinates": [ -41.083039, -10.971247 ] } },
{ "type": "Feature", "properties": { "latitude": -2.05344, "longitude": -60.02449, "category": "place", "Title": "Presidente Figueiredo - AM - Nice caves and waterfalls" }, "geometry": { "type": "Point", "coordinates": [ -60.02449, -2.05344 ] } },
{ "type": "Feature", "properties": { "latitude": -18.416264, "longitude": -46.420155, "category": "place", "Title": "Presidente Oleg&aacute;rio - MG" }, "geometry": { "type": "Point", "coordinates": [ -46.420155, -18.416264 ] } },
{ "type": "Feature", "properties": { "latitude": -24.643897, "longitude": -48.392029, "category": "place", "Title": "Serra da Tapagem - SP" }, "geometry": { "type": "Point", "coordinates": [ -48.392029, -24.643897 ] } },
{ "type": "Feature", "properties": { "latitude": -13.392625, "longitude": -44.196968, "category": "place", "Title": "Serra do Ramalho - BA - Caves and more caves" }, "geometry": { "type": "Point", "coordinates": [ -44.196968, -13.392625 ] } },
{ "type": "Feature", "properties": { "latitude": -15.705349, "longitude": -44.029427, "category": "place", "Title": "Varzel&acirc;ndia - MG - Lots of caves" }, "geometry": { "type": "Point", "coordinates": [ -44.029427, -15.705349 ] } },
{ "type": "Feature", "properties": { "latitude": -24.585312, "longitude": -48.593028, "category": "place", "Title": "Iporanga - SP" }, "geometry": { "type": "Point", "coordinates": [ -48.593028, -24.585312 ] } },
{ "type": "Feature", "properties": { "latitude": -24.512265, "longitude": -48.84497, "category": "place", "Title": "Apiai - SP" }, "geometry": { "type": "Point", "coordinates": [ -48.84497, -24.512265 ] } },
{ "type": "Feature", "properties": { "latitude": -24.185331, "longitude": -48.529017, "category": "place", "Title": "Guapiara - SP" }, "geometry": { "type": "Point", "coordinates": [ -48.529017, -24.185331 ] } },
{ "type": "Feature", "properties": { "latitude": -24.337105, "longitude": -48.501616, "category": "place", "Title": "Base de Bulhas D’&aacute;gua" }, "geometry": { "type": "Point", "coordinates": [ -48.501616, -24.337105 ] } },
{ "type": "Feature", "properties": { "latitude": -15.613454, "longitude": -39.432552, "category": "place", "Title": "S&atilde;o Joa&atilde;o do Para&iacute;so - BA" }, "geometry": { "type": "Point", "coordinates": [ -39.432552, -15.613454 ] } },
{ "type": "Feature", "properties": { "latitude": -15.432231, "longitude": -39.330876, "category": "place", "Title": "Santa Luzia - BA" }, "geometry": { "type": "Point", "coordinates": [ -39.330876, -15.432231 ] } },
{ "type": "Feature", "properties": { "latitude": -22.112053, "longitude": -43.210018, "category": "place", "Title": "Tr&ecirc;s Rios - RJ" }, "geometry": { "type": "Point", "coordinates": [ -43.210018, -22.112053 ] } },
{ "type": "Feature", "properties": { "latitude": -21.537802, "longitude": -42.182301, "category": "place", "Title": "Santo Ant&ocirc;nio de P&aacute;dua - RJ" }, "geometry": { "type": "Point", "coordinates": [ -42.182301, -21.537802 ] } },
{ "type": "Feature", "properties": { "latitude": -21.762331, "longitude": -43.343371, "category": "place", "Title": "Juiz de Fora - MG" }, "geometry": { "type": "Point", "coordinates": [ -43.343371, -21.762331 ] } },
{ "type": "Feature", "properties": { "latitude": -21.737796, "longitude": -44.310352, "category": "place", "Title": "Andrel&acirc;ndia - MG" }, "geometry": { "type": "Point", "coordinates": [ -44.310352, -21.737796 ] } },
{ "type": "Feature", "properties": { "latitude": -21.464545, "longitude": -45.221485, "category": "place", "Title": "Carmo da Cachoeira - MG" }, "geometry": { "type": "Point", "coordinates": [ -45.221485, -21.464545 ] } },
{ "type": "Feature", "properties": { "latitude": -21.773156, "longitude": -46.56988, "category": "place", "Title": "Po&ccedil;os de Caldas - MG" }, "geometry": { "type": "Point", "coordinates": [ -46.56988, -21.773156 ] } },
{ "type": "Feature", "properties": { "latitude": -20.899802, "longitude": -45.272336, "category": "place", "Title": "Campo Belo - MG" }, "geometry": { "type": "Point", "coordinates": [ -45.272336, -20.899802 ] } },
{ "type": "Feature", "properties": { "latitude": -20.468475, "longitude": -45.960836, "category": "place", "Title": "Piumh&iacute; - MG" }, "geometry": { "type": "Point", "coordinates": [ -45.960836, -20.468475 ] } },
{ "type": "Feature", "properties": { "latitude": -23.187943, "longitude": -49.380866, "category": "place", "Title": "Piraju - SP" }, "geometry": { "type": "Point", "coordinates": [ -49.380866, -23.187943 ] } },
{ "type": "Feature", "properties": { "latitude": -22.336262, "longitude": -49.064055, "category": "place", "Title": "Bauru - SP" }, "geometry": { "type": "Point", "coordinates": [ -49.064055, -22.336262 ] } },
{ "type": "Feature", "properties": { "latitude": -21.483331, "longitude": -56.145508, "category": "place", "Title": "Jardim - MS" }, "geometry": { "type": "Point", "coordinates": [ -56.145508, -21.483331 ] } },
{ "type": "Feature", "properties": { "latitude": -21.990072, "longitude": -47.888788, "category": "place", "Title": "S&atilde;o Carlos - SP" }, "geometry": { "type": "Point", "coordinates": [ -47.888788, -21.990072 ] } },
{ "type": "Feature", "properties": { "latitude": -4.27389, "longitude": -55.97993, "category": "place", "Title": "Itaituba - PA" }, "geometry": { "type": "Point", "coordinates": [ -55.97993, -4.27389 ] } },
{ "type": "Feature", "properties": { "latitude": -3.82989, "longitude": -55.50009, "category": "place", "Title": "Fordl&acirc;ndia - PA" }, "geometry": { "type": "Point", "coordinates": [ -55.50009, -3.82989 ] } },
{ "type": "Feature", "properties": { "latitude": -0.968038, "longitude": -62.929294, "category": "place", "Title": "Barcelos - AM" }, "geometry": { "type": "Point", "coordinates": [ -62.929294, -0.968038 ] } },
{ "type": "Feature", "properties": { "latitude": -3.896642, "longitude": -61.374585, "category": "place", "Title": "Beruri - AM" }, "geometry": { "type": "Point", "coordinates": [ -61.374585, -3.896642 ] } },
{ "type": "Feature", "properties": { "latitude": -3.843717, "longitude": -62.063582, "category": "place", "Title": "Codaj&aacute;s - AM" }, "geometry": { "type": "Point", "coordinates": [ -62.063582, -3.843717 ] } },
{ "type": "Feature", "properties": { "latitude": -4.08228, "longitude": -63.142868, "category": "place", "Title": "Coari - AM" }, "geometry": { "type": "Point", "coordinates": [ -63.142868, -4.08228 ] } },
{ "type": "Feature", "properties": { "latitude": -3.345705, "longitude": -64.710443, "category": "place", "Title": "Tef&eacute; - AM" }, "geometry": { "type": "Point", "coordinates": [ -64.710443, -3.345705 ] } },
{ "type": "Feature", "properties": { "latitude": -2.741377, "longitude": -66.768836, "category": "place", "Title": "Juta&iacute; - AM" }, "geometry": { "type": "Point", "coordinates": [ -66.768836, -2.741377 ] } },
{ "type": "Feature", "properties": { "latitude": -2.862521, "longitude": -67.771067, "category": "place", "Title": "Tonantins - AM" }, "geometry": { "type": "Point", "coordinates": [ -67.771067, -2.862521 ] } },
{ "type": "Feature", "properties": { "latitude": -2.504676, "longitude": -66.080714, "category": "place", "Title": "Fonte Boa - AM" }, "geometry": { "type": "Point", "coordinates": [ -66.080714, -2.504676 ] } },
{ "type": "Feature", "properties": { "latitude": -3.07073, "longitude": -67.944911, "category": "place", "Title": "Santo Ant&ocirc;nio do I&ccedil;&aacute; - AM" }, "geometry": { "type": "Point", "coordinates": [ -67.944911, -3.07073 ] } },
{ "type": "Feature", "properties": { "latitude": -3.291989, "longitude": -60.189652, "category": "place", "Title": "Iranduba - AM" }, "geometry": { "type": "Point", "coordinates": [ -60.189652, -3.291989 ] } },
{ "type": "Feature", "properties": { "latitude": -2.657909, "longitude": -64.99231, "category": "place", "Title": "Santa Maria - AM" }, "geometry": { "type": "Point", "coordinates": [ -64.99231, -2.657909 ] } },
{ "type": "Feature", "properties": { "latitude": -14.828545, "longitude": -39.026188, "category": "place", "Title": "Ilh&eacute;us - BA" }, "geometry": { "type": "Point", "coordinates": [ -39.026188, -14.828545 ] } },
{ "type": "Feature", "properties": { "latitude": -13.882186, "longitude": -38.948185, "category": "place", "Title": "Barra Grande - BA" }, "geometry": { "type": "Point", "coordinates": [ -38.948185, -13.882186 ] } },
{ "type": "Feature", "properties": { "latitude": -25.010003, "longitude": -47.925268, "category": "place", "Title": "Canan&eacute;ia - SP" }, "geometry": { "type": "Point", "coordinates": [ -47.925268, -25.010003 ] } },
{ "type": "Feature", "properties": { "latitude": -23.815672, "longitude": -45.370234, "category": "place", "Title": "Ilhabela - SP" }, "geometry": { "type": "Point", "coordinates": [ -45.370234, -23.815672 ] } },
{ "type": "Feature", "properties": { "latitude": -23.161326, "longitude": -44.349439, "category": "place", "Title": "Ilha Grande - RJ" }, "geometry": { "type": "Point", "coordinates": [ -44.349439, -23.161326 ] } },
{ "type": "Feature", "properties": { "latitude": -23.074545, "longitude": -44.959564, "category": "place", "Title": "Cunha - SP" }, "geometry": { "type": "Point", "coordinates": [ -44.959564, -23.074545 ] } },
{ "type": "Feature", "properties": { "latitude": -10.580591, "longitude": -38.613231, "category": "place", "Title": "Banza&ecirc; - BA" }, "geometry": { "type": "Point", "coordinates": [ -38.613231, -10.580591 ] } },
{ "type": "Feature", "properties": { "latitude": -15.65174, "longitude": -57.21523, "category": "place", "Title": "Esta&ccedil;&atilde;o Ecol&oacute;gica Serra das Araras - MT" }, "geometry": { "type": "Point", "coordinates": [ -57.21523, -15.65174 ] } },
{ "type": "Feature", "properties": { "latitude": -2.589063, "longitude": -60.115266, "category": "place", "Title": "INPA Observation Tower" }, "geometry": { "type": "Point", "coordinates": [ -60.115266, -2.589063 ] } },
{ "type": "Feature", "properties": { "latitude": -5.201772, "longitude": -41.687264, "category": "place", "Title": "Parque Municipal da Pedra do Castelo - PI" }, "geometry": { "type": "Point", "coordinates": [ -41.687264, -5.201772 ] } },
{ "type": "Feature", "properties": { "latitude": -25.686739, "longitude": -54.441755, "category": "place", "Title": "Parque Nacional Cataratas do Igua&ccedil;u - PR" }, "geometry": { "type": "Point", "coordinates": [ -54.441755, -25.686739 ] } },
{ "type": "Feature", "properties": { "latitude": -2.607067, "longitude": -60.85267, "category": "place", "Title": "Parque Nacional das Ilhas Anavilhanas - AM" }, "geometry": { "type": "Point", "coordinates": [ -60.85267, -2.607067 ] } },
{ "type": "Feature", "properties": { "latitude": -4.143192, "longitude": -41.683613, "category": "place", "Title": "Parque Nacional de Sete Cidades - PI" }, "geometry": { "type": "Point", "coordinates": [ -41.683613, -4.143192 ] } },
{ "type": "Feature", "properties": { "latitude": -24.265669, "longitude": -48.413388, "category": "place", "Title": "Parque Estadual Intervales - SP" }, "geometry": { "type": "Point", "coordinates": [ -48.413388, -24.265669 ] } },
{ "type": "Feature", "properties": { "latitude": -19.349214, "longitude": -43.618897, "category": "place", "Title": "Parque Nacional da Serra do Cipó" }, "geometry": { "type": "Point", "coordinates": [ -43.618897, -19.349214 ] } },
{ "type": "Feature", "properties": { "latitude": -9.573306, "longitude": -37.848873, "category": "place", "Title": "Canyon do Xing&oacute; - SE" }, "geometry": { "type": "Point", "coordinates": [ -37.848873, -9.573306 ] } },
{ "type": "Feature", "properties": { "latitude": -4.55553, "longitude": -56.29922, "category": "place", "Title": "Parque Nacional da Amaz&ocirc;nia - PA" }, "geometry": { "type": "Point", "coordinates": [ -56.29922, -4.55553 ] } },
{ "type": "Feature", "properties": { "latitude": 0.874254, "longitude": -63.341393, "category": "place", "Title": "Parque Estadual da Serra do Arac&aacute; - AM" }, "geometry": { "type": "Point", "coordinates": [ -63.341393, 0.874254 ] } },
{ "type": "Feature", "properties": { "latitude": 49.34409, "longitude": -124.750076, "category": "place", "Title": "Horne Lake Caves Provincial Park - BC" }, "geometry": { "type": "Point", "coordinates": [ -124.750076, 49.34409 ] } },
{ "type": "Feature", "properties": { "latitude": 50.083199, "longitude": -125.859261, "category": "place", "Title": "Memekey Karst area - Vancouver Island" }, "geometry": { "type": "Point", "coordinates": [ -125.859261, 50.083199 ] } },
{ "type": "Feature", "properties": { "latitude": 49.848691, "longitude": -126.231534, "category": "place", "Title": "Upana Caves Karst area - Vancouver Island" }, "geometry": { "type": "Point", "coordinates": [ -126.231534, 49.848691 ] } },
{ "type": "Feature", "properties": { "latitude": 39.916484, "longitude": 116.390748, "category": "place", "Title": "Beijing - China" }, "geometry": { "type": "Point", "coordinates": [ 116.390748, 39.916484 ] } },
{ "type": "Feature", "properties": { "latitude": 60.390436, "longitude": 5.332929, "category": "place", "Title": "Bergen - Norway" }, "geometry": { "type": "Point", "coordinates": [ 5.332929, 60.390436 ] } },
{ "type": "Feature", "properties": { "latitude": -31.423512, "longitude": -64.190619, "category": "place", "Title": "C&oacute;rdoba - Argentina" }, "geometry": { "type": "Point", "coordinates": [ -64.190619, -31.423512 ] } },
{ "type": "Feature", "properties": { "latitude": 50.56563, "longitude": -4.078331, "category": "place", "Title": "Dartmoor National Park - UK field work with Kite Aerophotography" }, "geometry": { "type": "Point", "coordinates": [ -4.078331, 50.56563 ] } },
{ "type": "Feature", "properties": { "latitude": 55.952324, "longitude": -3.188589, "category": "place", "Title": "Edinburgh - Scotland" }, "geometry": { "type": "Point", "coordinates": [ -3.188589, 55.952324 ] } },
{ "type": "Feature", "properties": { "latitude": 60.212874, "longitude": 6.471291, "category": "place", "Title": "Folgefonna Glacier - Norway" }, "geometry": { "type": "Point", "coordinates": [ 6.471291, 60.212874 ] } },
{ "type": "Feature", "properties": { "latitude": -51.961421, "longitude": -60.075054, "category": "place", "Title": "Fox Bay - Falkland Islands" }, "geometry": { "type": "Point", "coordinates": [ -60.075054, -51.961421 ] } },
{ "type": "Feature", "properties": { "latitude": 39.549826, "longitude": -107.322621, "category": "place", "Title": "Glenwood Springs - CO" }, "geometry": { "type": "Point", "coordinates": [ -107.322621, 39.549826 ] } },
{ "type": "Feature", "properties": { "latitude": 39.067125, "longitude": -108.565936, "category": "place", "Title": "Grand Junction - CO" }, "geometry": { "type": "Point", "coordinates": [ -108.565936, 39.067125 ] } },
{ "type": "Feature", "properties": { "latitude": -51.502338, "longitude": -60.131672, "category": "place", "Title": "Hill Cove - Falkland Islands" }, "geometry": { "type": "Point", "coordinates": [ -60.131672, -51.502338 ] } },
{ "type": "Feature", "properties": { "latitude": 51.412216, "longitude": -0.300407, "category": "place", "Title": "Kingston upon Thames - UK - Where I lived for 6 months as a visiting researcher at Kingston University" }, "geometry": { "type": "Point", "coordinates": [ -0.300407, 51.412216 ] } },
{ "type": "Feature", "properties": { "latitude": 38.730138, "longitude": -9.147674, "category": "place", "Title": "Lisboa - Portugal - Youth Hostel" }, "geometry": { "type": "Point", "coordinates": [ -9.147674, 38.730138 ] } },
{ "type": "Feature", "properties": { "latitude": 51.500862, "longitude": -0.121794, "category": "place", "Title": "London - UK" }, "geometry": { "type": "Point", "coordinates": [ -0.121794, 51.500862 ] } },
{ "type": "Feature", "properties": { "latitude": -51.520691, "longitude": -59.460956, "category": "place", "Title": "Manny Branch - Falkland Islands" }, "geometry": { "type": "Point", "coordinates": [ -59.460956, -51.520691 ] } },
{ "type": "Feature", "properties": { "latitude": 40.798377, "longitude": -73.967229, "category": "place", "Title": "New York City" }, "geometry": { "type": "Point", "coordinates": [ -73.967229, 40.798377 ] } },
{ "type": "Feature", "properties": { "latitude": 48.858341, "longitude": 2.294501, "category": "place", "Title": "Paris - France (not Texas)" }, "geometry": { "type": "Point", "coordinates": [ 2.294501, 48.858341 ] } },
{ "type": "Feature", "properties": { "latitude": -51.612008, "longitude": -59.520696, "category": "place", "Title": "Port Howard - Falkland Islands" }, "geometry": { "type": "Point", "coordinates": [ -59.520696, -51.612008 ] } },
{ "type": "Feature", "properties": { "latitude": -22.164017, "longitude": -57.951422, "category": "place", "Title": "Puerto Vallemy - Paraguay" }, "geometry": { "type": "Point", "coordinates": [ -57.951422, -22.164017 ] } },
{ "type": "Feature", "properties": { "latitude": -31.53436, "longitude": -68.538895, "category": "place", "Title": "San Juan - Argentina" }, "geometry": { "type": "Point", "coordinates": [ -68.538895, -31.53436 ] } },
{ "type": "Feature", "properties": { "latitude": -16.361781, "longitude": -58.405348, "category": "place", "Title": "San Mat&iacute;as - Bolivia" }, "geometry": { "type": "Point", "coordinates": [ -58.405348, -16.361781 ] } },
{ "type": "Feature", "properties": { "latitude": 31.241572, "longitude": 121.494884, "category": "place", "Title": "Shanghai - China" }, "geometry": { "type": "Point", "coordinates": [ 121.494884, 31.241572 ] } },
{ "type": "Feature", "properties": { "latitude": -51.692309, "longitude": -57.857429, "category": "place", "Title": "Waterfront Hotel - Falkland Islands" }, "geometry": { "type": "Point", "coordinates": [ -57.857429, -51.692309 ] } },
{ "type": "Feature", "properties": { "latitude": -51.538346, "longitude": -59.615581, "category": "place", "Title": "Wreckage of Argentinian Fighter Plane - Falkland Islands" }, "geometry": { "type": "Point", "coordinates": [ -59.615581, -51.538346 ] } },
{ "type": "Feature", "properties": { "latitude": 49.999085, "longitude": -125.230789, "category": "place", "Title": "Campbell River - BC" }, "geometry": { "type": "Point", "coordinates": [ -125.230789, 49.999085 ] } },
{ "type": "Feature", "properties": { "latitude": 52.878693, "longitude": -118.07964, "category": "place", "Title": "Jasper - Alberta - Jasper National Park" }, "geometry": { "type": "Point", "coordinates": [ -118.07964, 52.878693 ] } },
{ "type": "Feature", "properties": { "latitude": 49.166201, "longitude": -123.937336, "category": "place", "Title": "Nanaimo - BC - Vancouver Island " }, "geometry": { "type": "Point", "coordinates": [ -123.937336, 49.166201 ] } },
{ "type": "Feature", "properties": { "latitude": 50.136916, "longitude": -125.204164, "category": "place", "Title": "Quadra Island - BC - Open Bay" }, "geometry": { "type": "Point", "coordinates": [ -125.204164, 50.136916 ] } },
{ "type": "Feature", "properties": { "latitude": 4.59808, "longitude": -74.076092, "category": "place", "Title": "Bogot&aacute; - Colombia" }, "geometry": { "type": "Point", "coordinates": [ -74.076092, 4.59808 ] } },
{ "type": "Feature", "properties": { "latitude": -34.60843, "longitude": -58.372171, "category": "place", "Title": "Buenos Aires - Argentina" }, "geometry": { "type": "Point", "coordinates": [ -58.372171, -34.60843 ] } },
{ "type": "Feature", "properties": { "latitude": 10.422463, "longitude": -75.546305, "category": "place", "Title": "Cartagena de Indias - Colombia - Hotel Centenario" }, "geometry": { "type": "Point", "coordinates": [ -75.546305, 10.422463 ] } },
{ "type": "Feature", "properties": { "latitude": 41.893541, "longitude": -87.622946, "category": "place", "Title": "Chicago - IL" }, "geometry": { "type": "Point", "coordinates": [ -87.622946, 41.893541 ] } },
{ "type": "Feature", "properties": { "latitude": 6.066676, "longitude": -73.849999, "category": "place", "Title": "El Pe&ntilde;on - Colombia - Nice caves" }, "geometry": { "type": "Point", "coordinates": [ -73.849999, 6.066676 ] } },
{ "type": "Feature", "properties": { "latitude": -53.632295, "longitude": -70.913718, "category": "place", "Title": "Fuerte Bulnes - Estrecho de Magallanes - Strait of Magellan" }, "geometry": { "type": "Point", "coordinates": [ -70.913718, -53.632295 ] } },
{ "type": "Feature", "properties": { "latitude": 6.235659, "longitude": -75.576032, "category": "place", "Title": "Medellin - Colombia" }, "geometry": { "type": "Point", "coordinates": [ -75.576032, 6.235659 ] } },
{ "type": "Feature", "properties": { "latitude": -53.159885, "longitude": -70.905656, "category": "place", "Title": "Punta Arenas - Chile" }, "geometry": { "type": "Point", "coordinates": [ -70.905656, -53.159885 ] } },
{ "type": "Feature", "properties": { "latitude": 33.711125, "longitude": -118.293727, "category": "place", "Title": "San Pedro - Youth hostel" }, "geometry": { "type": "Point", "coordinates": [ -118.293727, 33.711125 ] } },
{ "type": "Feature", "properties": { "latitude": -31.981675, "longitude": -64.557765, "category": "place", "Title": "Villa General Belgrano - Argentina" }, "geometry": { "type": "Point", "coordinates": [ -64.557765, -31.981675 ] } },
{ "type": "Feature", "properties": { "latitude": 38.902727, "longitude": -77.026893, "category": "place", "Title": "Washington - DC" }, "geometry": { "type": "Point", "coordinates": [ -77.026893, 38.902727 ] } },
{ "type": "Feature", "properties": { "latitude": 52.537063, "longitude": 13.393199, "category": "place", "Title": "Berlin - Germany" }, "geometry": { "type": "Point", "coordinates": [ 13.393199, 52.537063 ] } },
{ "type": "Feature", "properties": { "latitude": 45.771861, "longitude": 8.573611, "category": "place", "Title": "Angera - Italy" }, "geometry": { "type": "Point", "coordinates": [ 8.573611, 45.771861 ] } },
{ "type": "Feature", "properties": { "latitude": -22.951577, "longitude": -43.210741, "category": "place", "Title": "Rio de Janeiro - Brazil - 31st International Geological Congress (2000) - This is not the Capital of Brazil!!" }, "geometry": { "type": "Point", "coordinates": [ -43.210741, -22.951577 ] } },
{ "type": "Feature", "properties": { "latitude": 38.947601, "longitude": -77.366466, "category": "place", "Title": "Reston - VA - USGS Workshop: SRTM Data Validation and Applications (2005)" }, "geometry": { "type": "Point", "coordinates": [ -77.366466, 38.947601 ] } },
{ "type": "Feature", "properties": { "latitude": 31.854231, "longitude": 118.774567, "category": "place", "Title": "Nanjing - China - International Symposium on Terrain Analysis and Digital Terrain Modeling (2006)" }, "geometry": { "type": "Point", "coordinates": [ 118.774567, 31.854231 ] } },
{ "type": "Feature", "properties": { "latitude": 46.616335, "longitude": 14.264921, "category": "place", "Title": "Klagenfurt - Austria - statGIS 2007 Conference" }, "geometry": { "type": "Point", "coordinates": [ 14.264921, 46.616335 ] } },
{ "type": "Feature", "properties": { "latitude": 59.911234, "longitude": 10.732999, "category": "place", "Title": "Oslo - Norway - 33rd International Geological Congress (2008)" }, "geometry": { "type": "Point", "coordinates": [ 10.732999, 59.911234 ] } },
{ "type": "Feature", "properties": { "latitude": 47.39734, "longitude": 8.54844, "category": "place", "Title": "Z&uuml;rich - Switzerland - Geomorphometry 2009 Conference (Z&uuml;rich Univ. Irchel Campus)" }, "geometry": { "type": "Point", "coordinates": [ 8.54844, 47.39734 ] } },
{ "type": "Feature", "properties": { "latitude": 37.783905, "longitude": -122.401202, "category": "place", "Title": "San Francisco - CA - AGU 2010 Fall Meeting" }, "geometry": { "type": "Point", "coordinates": [ -122.401202, 37.783905 ] } },
{ "type": "Feature", "properties": { "latitude": 34.056232, "longitude": -117.197826, "category": "place", "Title": "Redlands - CA - Geomorphometry 2011 Conference (ESRI Campus)" }, "geometry": { "type": "Point", "coordinates": [ -117.197826, 34.056232 ] } },
{ "type": "Feature", "properties": { "latitude": 35.222401, "longitude": -80.843997, "category": "place", "Title": "Charlotte - NC - GSA 2012 Annual Meeting" }, "geometry": { "type": "Point", "coordinates": [ -80.843997, 35.222401 ] } },
{ "type": "Feature", "properties": { "latitude": 39.742502, "longitude": -104.996502, "category": "place", "Title": "Denver - CO - GSA 2013 Annual Meeting" }, "geometry": { "type": "Point", "coordinates": [ -104.996502, 39.742502 ] } },
{ "type": "Feature", "properties": { "latitude": 49.289088, "longitude": -123.115868, "category": "place", "Title": "Vancouver - BC - GSA 2014 Annual Meeting  " }, "geometry": { "type": "Point", "coordinates": [ -123.115868, 49.289088 ] } },
{ "type": "Feature", "properties": { "latitude": 52.408323, "longitude": 16.933536, "category": "place", "Title": "Pozn&aacute;n - Poland - Geomorphometry 2015 Conference" }, "geometry": { "type": "Point", "coordinates": [ 16.933536, 52.408323 ] } },
{ "type": "Feature", "properties": { "latitude": 39.285713, "longitude": -76.617924, "category": "place", "Title": "Baltimore - MD - GSA 2015 Annual Meeting" }, "geometry": { "type": "Point", "coordinates": [ -76.617924, 39.285713 ] } },
{ "type": "Feature", "properties": { "latitude": 50.062559, "longitude": 14.428333, "category": "place", "Title": "Prague - Czech Republic -  International Society for Photogrammetry and Remote Sensing Congress" }, "geometry": { "type": "Point", "coordinates": [ 14.428333, 50.062559 ] } },
{ "type": "Feature", "properties": { "latitude": 45.811152, "longitude": 8.626062, "category": "place", "Title": "Ispra - Italy - Global DEMs benchmarking workshop (JRC)" }, "geometry": { "type": "Point", "coordinates": [ 8.626062, 45.811152 ] } },
{ "type": "Feature", "properties": { "latitude": 40.012221, "longitude": -105.259708, "category": "place", "Title": "Boulder - CO - Geomorphometry 2018 Conference" }, "geometry": { "type": "Point", "coordinates": [ -105.259708, 40.012221 ] } },
{ "type": "Feature", "properties": { "latitude": -22.61718, "longitude": -42.001419, "category": "place", "Title": "B&uacute;zios - RJ - IX SNET + International Symposium on Tectonics (2003)" }, "geometry": { "type": "Point", "coordinates": [ -42.001419, -22.61718 ] } },
{ "type": "Feature", "properties": { "latitude": -25.428082, "longitude": -49.275742, "category": "place", "Title": "Curitiba - PR - X SNET (2005) + International Symposium on Tectonics (2005) + 44th Brazilian Geological Congress (2008) + Friends" }, "geometry": { "type": "Point", "coordinates": [ -49.275742, -25.428082 ] } },
{ "type": "Feature", "properties": { "latitude": -19.923212, "longitude": -43.943255, "category": "place", "Title": "Belo Horizonte - MG - 40th Brazilian Geological Congress (1998) + Friends" }, "geometry": { "type": "Point", "coordinates": [ -43.943255, -19.923212 ] } },
{ "type": "Feature", "properties": { "latitude": -7.114861, "longitude": -34.822884, "category": "place", "Title": "Jo&atilde;o Pessoa - PB - 41st Brazilian Geological Congress (2002)" }, "geometry": { "type": "Point", "coordinates": [ -34.822884, -7.114861 ] } },
{ "type": "Feature", "properties": { "latitude": -19.594106, "longitude": -46.940986, "category": "place", "Title": "Arax&aacute; - MG -  42nd Brazilian Geological Congress (2004)" }, "geometry": { "type": "Point", "coordinates": [ -46.940986, -19.594106 ] } },
{ "type": "Feature", "properties": { "latitude": -10.919618, "longitude": -37.062378, "category": "place", "Title": "Aracaju - SE - 43rd Brazilian Geological Congress (2006)" }, "geometry": { "type": "Point", "coordinates": [ -37.062378, -10.919618 ] } },
{ "type": "Feature", "properties": { "latitude": -1.46171, "longitude": -48.503094, "category": "place", "Title": "Bel&eacute;m - PA - 45th Brazilian Geological Congress (2010)" }, "geometry": { "type": "Point", "coordinates": [ -48.503094, -1.46171 ] } },
{ "type": "Feature", "properties": { "latitude": -23.959187, "longitude": -46.335037, "category": "place", "Title": "Santos - SP - 46th Brazilian Geological Congress (2012)" }, "geometry": { "type": "Point", "coordinates": [ -46.335037, -23.959187 ] } },
{ "type": "Feature", "properties": { "latitude": -12.98397, "longitude": -38.440526, "category": "place", "Title": "Salvador - BA - 47th Brazilian Geological Congress (2014)" }, "geometry": { "type": "Point", "coordinates": [ -38.440526, -12.98397 ] } },


{ "type": "Feature", "properties": { "latitude": -44.623299, "longitude": -23.191779, "category": "dive", "Title": "Paraty - Ilha Comprida" }, "geometry": { "type": "Point", "coordinates": [ -44.623299, -23.191779 ] } },
{ "type": "Feature", "properties": { "latitude": -46.669992, "longitude": -24.483342, "category": "dive", "Title": "Santos - Ilha Queimada Grande" }, "geometry": { "type": "Point", "coordinates": [ -46.669992, -24.483342 ] } },
{ "type": "Feature", "properties": { "latitude": -47.521356, "longitude": -23.647931, "category": "dive", "Title": "Salto de Pirapora - Pedreira Salto de Pirapora" }, "geometry": { "type": "Point", "coordinates": [ -47.521356, -23.647931 ] } },
{ "type": "Feature", "properties": { "latitude": -44.574677, "longitude": -23.186619, "category": "dive", "Title": "Paraty - Ilha dos Meros" }, "geometry": { "type": "Point", "coordinates": [ -44.574677, -23.186619 ] } },
{ "type": "Feature", "properties": { "latitude": -44.623299, "longitude": -23.191779, "category": "dive", "Title": "Paraty - Ilha Comprida" }, "geometry": { "type": "Point", "coordinates": [ -44.623299, -23.191779 ] } },
{ "type": "Feature", "properties": { "latitude": -44.57777, "longitude": -23.18705, "category": "dive", "Title": "Paraty - Ilha dos Meros - ponta sul" }, "geometry": { "type": "Point", "coordinates": [ -44.57777, -23.18705 ] } },
{ "type": "Feature", "properties": { "latitude": -44.60878, "longitude": -23.19464, "category": "dive", "Title": "Paraty - Ilha dos Ratos" }, "geometry": { "type": "Point", "coordinates": [ -44.60878, -23.19464 ] } },
{ "type": "Feature", "properties": { "latitude": -44.2835, "longitude": -23.11797, "category": "dive", "Title": "Ilha Grande - Pinguino" }, "geometry": { "type": "Point", "coordinates": [ -44.2835, -23.11797 ] } },
{ "type": "Feature", "properties": { "latitude": -44.27416, "longitude": -23.11639, "category": "dive", "Title": "Ilha Grande - Aripeba" }, "geometry": { "type": "Point", "coordinates": [ -44.27416, -23.11639 ] } },
{ "type": "Feature", "properties": { "latitude": -44.34943, "longitude": -23.16144, "category": "dive", "Title": "Ilha Grande - Praia Vermelha" }, "geometry": { "type": "Point", "coordinates": [ -44.34943, -23.16144 ] } },
{ "type": "Feature", "properties": { "latitude": -44.34684, "longitude": -23.13713, "category": "dive", "Title": "Ilha Grande - Lage Branca" }, "geometry": { "type": "Point", "coordinates": [ -44.34684, -23.13713 ] } },
{ "type": "Feature", "properties": { "latitude": -45.392058, "longitude": -23.829773, "category": "dive", "Title": "Ilhabela - Ilha das Cabras" }, "geometry": { "type": "Point", "coordinates": [ -45.392058, -23.829773 ] } },
{ "type": "Feature", "properties": { "latitude": -38.927427, "longitude": -13.936087, "category": "dive", "Title": "Maraú - Taipu de Fora" }, "geometry": { "type": "Point", "coordinates": [ -38.927427, -13.936087 ] } },
{ "type": "Feature", "properties": { "latitude": -44.858255, "longitude": -23.423037, "category": "dive", "Title": "Ubatuba - Ilha das Couves" }, "geometry": { "type": "Point", "coordinates": [ -44.858255, -23.423037 ] } },
{ "type": "Feature", "properties": { "latitude": -44.859518, "longitude": -23.422262, "category": "dive", "Title": "Ubatuba - Ilhote das Couves" }, "geometry": { "type": "Point", "coordinates": [ -44.859518, -23.422262 ] } },
{ "type": "Feature", "properties": { "latitude": -44.904581, "longitude": -23.425218, "category": "dive", "Title": "Ubatuba - Ilha da Rapada" }, "geometry": { "type": "Point", "coordinates": [ -44.904581, -23.425218 ] } },
{ "type": "Feature", "properties": { "latitude": -45.147387, "longitude": -23.790766, "category": "dive", "Title": "Ilhabela - Ilha de Búzios - Aquario" }, "geometry": { "type": "Point", "coordinates": [ -45.147387, -23.790766 ] } },
{ "type": "Feature", "properties": { "latitude": -45.153347, "longitude": -23.794559, "category": "dive", "Title": "Ilhabela - Ilha de Búzios – Cercos" }, "geometry": { "type": "Point", "coordinates": [ -45.153347, -23.794559 ] } }
]
}
